[
  {
    "type": "Feature",
    "id": "node/172348137",
    "properties": {
      "timestamp": "2021-05-30T10:42:18Z",
      "version": "8",
      "name": "Природонаучен Музеј",
      "name:en": "Macedonian Museum of Natural History",
      "name:tr": "Ulusal Tarih Müzesi",
      "tourism": "museum",
      "wikidata": "Q20567394",
      "wikipedia": "mk:Природонаучен музеј на Македонија",
      "id": "node/172348137"
    },
    "geometry": {
      "type": "Point",
      "coordinates": [
        21.4174425,
        42.005709
      ]
    }
  },
  {
    "type": "Feature",
    "id": "node/332044798",
    "properties": {
      "timestamp": "2015-07-14T13:36:35Z",
      "version": "2",
      "name": "Попова Шапка",
      "name:en": "Popova Shapka",
      "tourism": "hotel",
      "int_name": "Hotel Popova Sapka",
      "id": "node/332044798"
    },
    "geometry": {
      "type": "Point",
      "coordinates": [
        20.8804512,
        42.0136748
      ]
    }
  },
  {
    "type": "Feature",
    "id": "node/365840363",
    "properties": {
      "timestamp": "2019-05-14T03:44:08Z",
      "version": "6",
      "name": "Хотел Водно",
      "name:en": "Vodno Hotel",
      "tourism": "hotel",
      "website": "http://hotelimakedonija.com.mk/mk/Hotel/57/Hotel-Vodno-Skopje",
      "int_name": "Vodno",
      "id": "node/365840363"
    },
    "geometry": {
      "type": "Point",
      "coordinates": [
        21.4087904,
        41.9766582
      ]
    }
  },
  {
    "type": "Feature",
    "id": "node/369750026",
    "properties": {
      "timestamp": "2019-05-16T12:44:25Z",
      "version": "9",
      "name": "Влез на Скопското кале",
      "access": "no",
      "barrier": "entrance",
      "name:en": "Skopje Fortress Gate",
      "historic": "city_gate",
      "id": "node/369750026"
    },
    "geometry": {
      "type": "Point",
      "coordinates": [
        21.4338778,
        42.0008716
      ]
    }
  },
  {
    "type": "Feature",
    "id": "node/410115784",
    "properties": {
      "timestamp": "2020-05-17T05:36:04Z",
      "version": "6",
      "name": "Мечкин Камен",
      "name:en": "Mechkin Kamen",
      "historic": "monument",
      "int_name": "Mečkin Kamen",
      "id": "node/410115784"
    },
    "geometry": {
      "type": "Point",
      "coordinates": [
        21.257898,
        41.3377228
      ]
    }
  },
  {
    "type": "Feature",
    "id": "node/416452221",
    "properties": {
      "timestamp": "2009-10-31T01:22:26Z",
      "version": "2",
      "name": "Канет",
      "tourism": "hotel",
      "id": "node/416452221"
    },
    "geometry": {
      "type": "Point",
      "coordinates": [
        21.4244806,
        42.0037446
      ]
    }
  },
  {
    "type": "Feature",
    "id": "node/461664195",
    "properties": {
      "timestamp": "2013-08-14T18:11:52Z",
      "version": "5",
      "name": "Хотел Илинден",
      "name:en": "Hotel Ilinden",
      "tourism": "hotel",
      "id": "node/461664195"
    },
    "geometry": {
      "type": "Point",
      "coordinates": [
        22.6431437,
        41.436015
      ]
    }
  },
  {
    "type": "Feature",
    "id": "node/470410033",
    "properties": {
      "timestamp": "2020-03-28T06:57:51Z",
      "version": "8",
      "ele": "1645",
      "name": "Љуботен",
      "name:en": "Ljuboten",
      "name:sr": "Планинарски дом Љуботен",
      "tourism": "alpine_hut",
      "alt_name": "Планинарски дом Љуботен",
      "operator": " ИГМ „Вратница“ - Вратница",
      "wikidata": "Q50136317",
      "population": "0",
      "name:sr-Latn": "Planinarski dom Ljuboten",
      "id": "node/470410033"
    },
    "geometry": {
      "type": "Point",
      "coordinates": [
        21.127279,
        42.184771
      ]
    }
  },
  {
    "type": "Feature",
    "id": "node/478699817",
    "properties": {
      "timestamp": "2013-09-26T03:24:23Z",
      "version": "2",
      "name": "Музеј на град Берово",
      "name:en": "Berovo Town Museum",
      "tourism": "museum",
      "website": "http://www.berovo.gov.mk/index.php?option=com_content&view=article&id=76&Itemid=117",
      "id": "node/478699817"
    },
    "geometry": {
      "type": "Point",
      "coordinates": [
        22.8566138,
        41.7077548
      ]
    }
  },
  {
    "type": "Feature",
    "id": "node/496160455",
    "properties": {
      "timestamp": "2018-06-02T04:16:25Z",
      "version": "4",
      "name": "Хотел Београд",
      "stars": "3",
      "name:en": "Hotel Beograd",
      "tourism": "hotel",
      "int_name": "Hotel BEOGRAD",
      "addr:city": "Струга",
      "addr:street": "8. Ноември",
      "addr:postcode": "6330",
      "internet_access": "wlan",
      "addr:housenumber": "Kej 8-mi noemvri",
      "internet_access:fee": "yes",
      "id": "node/496160455"
    },
    "geometry": {
      "type": "Point",
      "coordinates": [
        20.6785228,
        41.1781482
      ]
    }
  },
  {
    "type": "Feature",
    "id": "node/499130722",
    "properties": {
      "timestamp": "2012-09-03T11:05:49Z",
      "version": "2",
      "name": "Макпетрол",
      "tourism": "hotel",
      "int_name": "Makpetrol",
      "id": "node/499130722"
    },
    "geometry": {
      "type": "Point",
      "coordinates": [
        20.7390308,
        41.6499002
      ]
    }
  },
  {
    "type": "Feature",
    "id": "node/529811458",
    "properties": {
      "timestamp": "2018-05-02T12:47:08Z",
      "version": "3",
      "name": "Музеј Галерија Кавадарци",
      "name:en": "Muzej Galerija Kavadarci",
      "tourism": "museum",
      "id": "node/529811458"
    },
    "geometry": {
      "type": "Point",
      "coordinates": [
        22.0163228,
        41.4343634
      ]
    }
  },
  {
    "type": "Feature",
    "id": "node/842635213",
    "properties": {
      "timestamp": "2012-09-18T14:41:30Z",
      "version": "7",
      "name": "Гиновци",
      "name:mk": "Гиновци",
      "tourism": "picnic_site",
      "int_name": "Ginovci",
      "id": "node/842635213"
    },
    "geometry": {
      "type": "Point",
      "coordinates": [
        22.1633104,
        42.1824239
      ]
    }
  },
  {
    "type": "Feature",
    "id": "node/959317641",
    "properties": {
      "timestamp": "2012-12-02T01:25:27Z",
      "version": "4",
      "name": "Хотел НЕДА - Галичник",
      "tourism": "hotel",
      "id": "node/959317641"
    },
    "geometry": {
      "type": "Point",
      "coordinates": [
        20.6481197,
        41.5924377
      ]
    }
  },
  {
    "type": "Feature",
    "id": "node/1378197244",
    "properties": {
      "timestamp": "2021-02-22T11:27:41Z",
      "version": "7",
      "email": "info@orangeinn.com.mk",
      "name": "Hotel Orange Inn",
      "phone": "+38922772254",
      "tourism": "hotel",
      "website": "https://www.booking.com/hotel/mk/orange-inn.en-gb.html?sid=1ddd35f0ef4f22510d37f152a78ce4a3",
      "id": "node/1378197244"
    },
    "geometry": {
      "type": "Point",
      "coordinates": [
        21.440152,
        41.980192
      ]
    }
  },
  {
    "type": "Feature",
    "id": "node/1381642430",
    "properties": {
      "timestamp": "2015-11-12T13:37:54Z",
      "version": "3",
      "name": "Александар",
      "name:en": "Aleksandar",
      "tourism": "hotel",
      "addr:street": "Востаничка",
      "addr:housenumber": "24",
      "id": "node/1381642430"
    },
    "geometry": {
      "type": "Point",
      "coordinates": [
        21.4262323,
        41.9843835
      ]
    }
  },
  {
    "type": "Feature",
    "id": "node/1475328742",
    "properties": {
      "timestamp": "2013-07-08T21:11:22Z",
      "version": "3",
      "name": "Rimska crkva",
      "is_in": "Orman",
      "historic": "archaeological_site",
      "id": "node/1475328742"
    },
    "geometry": {
      "type": "Point",
      "coordinates": [
        21.3527926,
        42.0586697
      ]
    }
  },
  {
    "type": "Feature",
    "id": "node/1499057720",
    "properties": {
      "timestamp": "2013-04-21T19:58:28Z",
      "version": "2",
      "name": "Hotel City Central International",
      "source": "GPS",
      "tourism": "hotel",
      "id": "node/1499057720"
    },
    "geometry": {
      "type": "Point",
      "coordinates": [
        21.4329531,
        41.9948912
      ]
    }
  },
  {
    "type": "Feature",
    "id": "node/1507082598",
    "properties": {
      "timestamp": "2021-06-20T15:53:37Z",
      "version": "2",
      "ele": "1744",
      "name": "Jorgov Kamen",
      "tourism": "viewpoint",
      "id": "node/1507082598"
    },
    "geometry": {
      "type": "Point",
      "coordinates": [
        21.2228278,
        41.0214101
      ]
    }
  },
  {
    "type": "Feature",
    "id": "node/1611964677",
    "properties": {
      "timestamp": "2021-03-24T21:35:49Z",
      "version": "5",
      "boundary": "marker",
      "ele": "1337",
      "historic": "boundary_stone",
      "marker": "stone",
      "name": "Шуплив Камен",
      "name:sr": "Шупаљ камак",
      "name:sr-Latn": "Šupalj kamak",
      "natural": "peak",
      "ref": "106",
      "id": "node/1611964677"
    },
    "geometry": {
      "type": "Point",
      "coordinates": [
        22.3602706,
        42.3111141
      ]
    }
  },
  {
    "type": "Feature",
    "id": "node/1612143468",
    "properties": {
      "timestamp": "2021-10-14T21:32:20Z",
      "version": "3",
      "boundary": "marker",
      "ele": "1748.8",
      "historic": "boundary_stone",
      "marker": "stone",
      "name": "Куцолиница / 86",
      "natural": "peak",
      "id": "node/1612143468"
    },
    "geometry": {
      "type": "Point",
      "coordinates": [
        22.5899869,
        42.1102442
      ]
    }
  },
  {
    "type": "Feature",
    "id": "node/1786613380",
    "properties": {
      "timestamp": "2016-05-17T14:30:06Z",
      "version": "5",
      "ele": "1554",
      "name": "Копанки",
      "source": "user knowledge",
      "name:en": "Kopanki",
      "tourism": "alpine_hut",
      "alt_name": "Планинарски Дом Копанки",
      "int_name": "Kopanki",
      "operator": "ПД „Пелистер“ - Битола",
      "abandoned": "yes",
      "alt_name:en": "Planinarski Dom Kopanki",
      "id": "node/1786613380"
    },
    "geometry": {
      "type": "Point",
      "coordinates": [
        21.2190362,
        41.0330959
      ]
    }
  },
  {
    "type": "Feature",
    "id": "node/1812296549",
    "properties": {
      "timestamp": "2012-07-04T09:58:29Z",
      "version": "1",
      "name": "Hotel MVR",
      "source": "Bing",
      "tourism": "hotel",
      "id": "node/1812296549"
    },
    "geometry": {
      "type": "Point",
      "coordinates": [
        21.0846302,
        40.9299992
      ]
    }
  },
  {
    "type": "Feature",
    "id": "node/1853704787",
    "properties": {
      "timestamp": "2020-01-10T07:49:43Z",
      "version": "3",
      "name": "Музеј на Дојран",
      "tourism": "museum",
      "id": "node/1853704787"
    },
    "geometry": {
      "type": "Point",
      "coordinates": [
        22.7221034,
        41.1871817
      ]
    }
  },
  {
    "type": "Feature",
    "id": "node/1867151652",
    "properties": {
      "timestamp": "2019-05-16T12:44:26Z",
      "version": "7",
      "name": "Скендербег",
      "name:de": "Skanderbeg",
      "name:en": "Skanderbeg",
      "name:sh": "Skënderbeu",
      "tourism": "artwork",
      "historic": "memorial",
      "memorial": "statue",
      "wikidata": "Q160614",
      "wikipedia": "mk:Скендербег",
      "inscription": "Скендербег",
      "artwork_type": "statue",
      "id": "node/1867151652"
    },
    "geometry": {
      "type": "Point",
      "coordinates": [
        21.4372205,
        41.9992386
      ]
    }
  },
  {
    "type": "Feature",
    "id": "node/1872779050",
    "properties": {
      "timestamp": "2012-08-19T13:54:23Z",
      "version": "1",
      "name": "Вила Фидански",
      "source": "Bing",
      "tourism": "guest_house",
      "int_name": "Vila Fidanski",
      "id": "node/1872779050"
    },
    "geometry": {
      "type": "Point",
      "coordinates": [
        22.8963993,
        41.6774869
      ]
    }
  },
  {
    "type": "Feature",
    "id": "node/1879078048",
    "properties": {
      "timestamp": "2013-09-20T23:32:47Z",
      "version": "2",
      "name": "Три Круши",
      "place": "locality",
      "tourism": "viewpoint",
      "id": "node/1879078048"
    },
    "geometry": {
      "type": "Point",
      "coordinates": [
        21.5227,
        41.9288003
      ]
    }
  },
  {
    "type": "Feature",
    "id": "node/1909982080",
    "properties": {
      "timestamp": "2016-11-12T19:14:02Z",
      "version": "5",
      "name": "Ѕидан Мост",
      "source": "Bing",
      "name:en": "Dzidan Most",
      "tourism": "motel",
      "int_name": "Dzidan Most",
      "id": "node/1909982080"
    },
    "geometry": {
      "type": "Point",
      "coordinates": [
        21.4712294,
        41.5901499
      ]
    }
  },
  {
    "type": "Feature",
    "id": "node/1916474196",
    "properties": {
      "timestamp": "2019-05-06T17:16:26Z",
      "version": "6",
      "name": "Смоларски Водопади",
      "height": "39.5",
      "name:en": "Smolare Falls",
      "tourism": "attraction",
      "int_name": "Smolarski Vodopadi",
      "waterway": "waterfall",
      "id": "node/1916474196"
    },
    "geometry": {
      "type": "Point",
      "coordinates": [
        22.8995124,
        41.3659468
      ]
    }
  },
  {
    "type": "Feature",
    "id": "node/1951175744",
    "properties": {
      "timestamp": "2012-10-07T17:50:59Z",
      "version": "1",
      "name": "Кај Дабо",
      "name:en": "Kaj Dabo",
      "tourism": "picnic_site",
      "int_name": "Kaj Dabo",
      "id": "node/1951175744"
    },
    "geometry": {
      "type": "Point",
      "coordinates": [
        22.3728601,
        41.9372016
      ]
    }
  },
  {
    "type": "Feature",
    "id": "node/1969643201",
    "properties": {
      "timestamp": "2017-08-31T21:42:29Z",
      "version": "2",
      "name": "Пешна",
      "email": "pesnamotel@yahoo.com",
      "name:en": "Peshna",
      "phone:1": "+389 75 44 64 10",
      "phone:2": "+389 76 432 432",
      "tourism": "motel",
      "website": "www.pesnamotel.com.mk",
      "int_name": "Pešna",
      "id": "node/1969643201"
    },
    "geometry": {
      "type": "Point",
      "coordinates": [
        21.2443132,
        41.5411002
      ]
    }
  },
  {
    "type": "Feature",
    "id": "node/1999960679",
    "properties": {
      "timestamp": "2019-06-27T20:30:26Z",
      "version": "3",
      "name": "Калабастер",
      "name:en": "Kalabaster",
      "tourism": "alpine_hut",
      "capacity": "44",
      "operator": "ФПСМ - СКА",
      "id": "node/1999960679"
    },
    "geometry": {
      "type": "Point",
      "coordinates": [
        22.2459833,
        41.4066304
      ]
    }
  },
  {
    "type": "Feature",
    "id": "node/2026119373",
    "properties": {
      "timestamp": "2012-11-22T09:23:31Z",
      "version": "1",
      "name": "Sahat Kula",
      "historic": "monument",
      "id": "node/2026119373"
    },
    "geometry": {
      "type": "Point",
      "coordinates": [
        20.9108574,
        41.794932
      ]
    }
  },
  {
    "type": "Feature",
    "id": "node/2026930302",
    "properties": {
      "timestamp": "2012-11-22T20:19:56Z",
      "version": "1",
      "name": "Саат кула",
      "historic": "monument",
      "id": "node/2026930302"
    },
    "geometry": {
      "type": "Point",
      "coordinates": [
        21.7840512,
        41.7140782
      ]
    }
  },
  {
    "type": "Feature",
    "id": "node/2123629166",
    "properties": {
      "timestamp": "2013-01-25T12:35:53Z",
      "version": "3",
      "name": "hotel",
      "source": "hotel",
      "tourism": "hotel",
      "designation": "hotel",
      "id": "node/2123629166"
    },
    "geometry": {
      "type": "Point",
      "coordinates": [
        20.9106476,
        41.7961877
      ]
    }
  },
  {
    "type": "Feature",
    "id": "node/2189840898",
    "properties": {
      "timestamp": "2015-03-20T16:07:16Z",
      "version": "2",
      "name": "Пеце Атанасоски",
      "historic": "monument",
      "id": "node/2189840898"
    },
    "geometry": {
      "type": "Point",
      "coordinates": [
        21.554267,
        41.3451518
      ]
    }
  },
  {
    "type": "Feature",
    "id": "node/2268500995",
    "properties": {
      "timestamp": "2021-01-04T18:49:52Z",
      "version": "4",
      "historic": "tomb",
      "name": "Тоше Проески",
      "tomb": "tombstone",
      "id": "node/2268500995"
    },
    "geometry": {
      "type": "Point",
      "coordinates": [
        21.2482546,
        41.3748686
      ]
    }
  },
  {
    "type": "Feature",
    "id": "node/2284578750",
    "properties": {
      "timestamp": "2013-04-28T17:16:45Z",
      "version": "1",
      "name": "Кампари",
      "tourism": "hotel",
      "int_name": "Campari",
      "id": "node/2284578750"
    },
    "geometry": {
      "type": "Point",
      "coordinates": [
        20.7372366,
        41.6493265
      ]
    }
  },
  {
    "type": "Feature",
    "id": "node/2320935254",
    "properties": {
      "timestamp": "2013-05-26T16:41:57Z",
      "version": "1",
      "name": "Villa Swiss",
      "tourism": "motel",
      "id": "node/2320935254"
    },
    "geometry": {
      "type": "Point",
      "coordinates": [
        20.8012661,
        41.0769232
      ]
    }
  },
  {
    "type": "Feature",
    "id": "node/2323236971",
    "properties": {
      "timestamp": "2017-04-20T13:55:45Z",
      "version": "3",
      "name": "Ашикот",
      "name:en": "Asikot",
      "tourism": "hotel",
      "internet_access": "wlan",
      "internet_access:fee": "no",
      "id": "node/2323236971"
    },
    "geometry": {
      "type": "Point",
      "coordinates": [
        22.5042089,
        41.1414679
      ]
    }
  },
  {
    "type": "Feature",
    "id": "node/2327281126",
    "properties": {
      "timestamp": "2020-12-25T12:05:00Z",
      "version": "2",
      "historic": "monument",
      "int_name": "Pitu Guli",
      "name": "Питу Гули",
      "name:en": "Pitu Guli",
      "id": "node/2327281126"
    },
    "geometry": {
      "type": "Point",
      "coordinates": [
        21.2497316,
        41.3649692
      ]
    }
  },
  {
    "type": "Feature",
    "id": "node/2360747213",
    "properties": {
      "timestamp": "2013-06-25T18:27:56Z",
      "version": "1",
      "name": "Два Коња",
      "historic": "monument",
      "id": "node/2360747213"
    },
    "geometry": {
      "type": "Point",
      "coordinates": [
        22.5001795,
        41.1458586
      ]
    }
  },
  {
    "type": "Feature",
    "id": "node/2411245239",
    "properties": {
      "timestamp": "2016-09-28T20:15:09Z",
      "version": "3",
      "name": "Хотел Јасен",
      "is_in": "Негорски Бањи",
      "phone": "0038934231174",
      "name:en": "Hotel Jasen",
      "tourism": "hotel",
      "int_name": "Hotel Jasen",
      "opening_hours": "24/7",
      "internet_access": "wlan",
      "id": "node/2411245239"
    },
    "geometry": {
      "type": "Point",
      "coordinates": [
        22.4904618,
        41.1719876
      ]
    }
  },
  {
    "type": "Feature",
    "id": "node/2503292107",
    "properties": {
      "timestamp": "2013-10-20T20:49:46Z",
      "version": "1",
      "name": "Apartmani Joce",
      "source": "survey",
      "tourism": "guest_house",
      "id": "node/2503292107"
    },
    "geometry": {
      "type": "Point",
      "coordinates": [
        20.7992249,
        41.1202504
      ]
    }
  },
  {
    "type": "Feature",
    "id": "node/2545342051",
    "properties": {
      "timestamp": "2013-11-22T15:47:27Z",
      "version": "1",
      "name": "Преспанско Советување",
      "historic": "monument",
      "id": "node/2545342051"
    },
    "geometry": {
      "type": "Point",
      "coordinates": [
        20.9119981,
        40.9765203
      ]
    }
  },
  {
    "type": "Feature",
    "id": "node/2835970547",
    "properties": {
      "timestamp": "2019-03-20T13:17:55Z",
      "version": "2",
      "name": "Apartman",
      "phone": "078-277-048",
      "tourism": "hotel",
      "website": "https://www.pazar3.mk/mk/Listing/AdDetail/Index/1148323-LUKSUZNO-OPREMENI-STANOVI-APARTMANI",
      "addr:city": "Куманово",
      "addr:street": "Иво Лола Рибар",
      "id": "node/2835970547"
    },
    "geometry": {
      "type": "Point",
      "coordinates": [
        21.7224017,
        42.135611
      ]
    }
  },
  {
    "type": "Feature",
    "id": "node/2984088703",
    "properties": {
      "timestamp": "2014-08-02T10:23:50Z",
      "version": "2",
      "name": "Prestol",
      "phone": "+389 46277858",
      "stars": "3",
      "source": "survey",
      "amenity": "restaurant",
      "tourism": "hotel",
      "website": "http://www.hotelprestol.com",
      "opening_hours": "07:00-21:00",
      "internet_access": "wlan",
      "internet_access:fee": "no",
      "id": "node/2984088703"
    },
    "geometry": {
      "type": "Point",
      "coordinates": [
        20.8016787,
        41.0678423
      ]
    }
  },
  {
    "type": "Feature",
    "id": "node/3011061685",
    "properties": {
      "timestamp": "2014-08-11T19:32:27Z",
      "version": "1",
      "mtb": "yes",
      "name": "Galicica National Park - Konjsko",
      "hiking": "yes",
      "tourism": "information",
      "map_size": "region",
      "map_type": "topo",
      "description": "Map of Galicica National Park with all the hiking and mtb routes and table with their length",
      "information": "map",
      "id": "node/3011061685"
    },
    "geometry": {
      "type": "Point",
      "coordinates": [
        20.8126026,
        41.0526085
      ]
    }
  },
  {
    "type": "Feature",
    "id": "node/3011061690",
    "properties": {
      "timestamp": "2018-06-26T17:05:18Z",
      "version": "2",
      "name": "Sv. Nikola",
      "tourism": "attraction",
      "historic": "wayside_shrine",
      "religion": "christian",
      "denomination": "orthodox",
      "id": "node/3011061690"
    },
    "geometry": {
      "type": "Point",
      "coordinates": [
        20.8135106,
        41.0596796
      ]
    }
  },
  {
    "type": "Feature",
    "id": "node/3046112441",
    "properties": {
      "timestamp": "2019-05-17T03:41:05Z",
      "version": "4",
      "name": "Goldy Hostel Bitola",
      "tourism": "hostel",
      "addr:street": "С. Лумбарко",
      "addr:housenumber": "15",
      "id": "node/3046112441"
    },
    "geometry": {
      "type": "Point",
      "coordinates": [
        21.3324955,
        41.0298294
      ]
    }
  },
  {
    "type": "Feature",
    "id": "node/3089857461",
    "properties": {
      "timestamp": "2014-09-21T21:53:20Z",
      "version": "1",
      "name": "Македонка",
      "tourism": "artwork",
      "artwork_type": "sculpture",
      "artist:wikidata": "Q3502919",
      "id": "node/3089857461"
    },
    "geometry": {
      "type": "Point",
      "coordinates": [
        21.7225477,
        42.145271
      ]
    }
  },
  {
    "type": "Feature",
    "id": "node/3263433907",
    "properties": {
      "timestamp": "2015-06-25T12:57:21Z",
      "version": "3",
      "name": "Манастир Св. Богородица Елеуса",
      "amenity": "place_of_worship",
      "name:en": "Monastery of the Mother of God Eleusa",
      "tourism": "attraction",
      "religion": "christian",
      "denomination": "orthodox",
      "id": "node/3263433907"
    },
    "geometry": {
      "type": "Point",
      "coordinates": [
        22.5651714,
        41.4748537
      ]
    }
  },
  {
    "type": "Feature",
    "id": "node/3361174898",
    "properties": {
      "timestamp": "2019-02-12T23:30:58Z",
      "version": "12",
      "name": "Hotel De KOKA",
      "email": "info@hoteldekoka.mk",
      "phone": "+38923112200",
      "rooms": "36",
      "stars": "3",
      "smoking": "separated",
      "tourism": "hotel",
      "website": "www.hoteldekoka.mk",
      "operator": "Hotel De KOKA",
      "addr:city": "skopje",
      "addr:street": "Gotse Deltchev",
      "addr:city:en": "Skopje",
      "addr:country": "MK",
      "payment:cash": "yes",
      "payment:visa": "yes",
      "addr:postcode": "1000",
      "payment:cards": "yes",
      "addr:street:mk": "бул. Гоце Делчев",
      "internet_access": "wlan",
      "payment:maestro": "yes",
      "addr:housenumber": "5",
      "payment:visa_debit": "yes",
      "internet_access:fee": "yes",
      "payment:debit_cards": "yes",
      "payment:visa_electron": "yes",
      "payment:american_express": "yes",
      "id": "node/3361174898"
    },
    "geometry": {
      "type": "Point",
      "coordinates": [
        21.4380987,
        41.9994486
      ]
    }
  },
  {
    "type": "Feature",
    "id": "node/3409074127",
    "properties": {
      "timestamp": "2021-10-07T18:47:59Z",
      "version": "4",
      "artwork_type": "bust",
      "name": "Мице Козароски-Јандре",
      "tourism": "artwork",
      "id": "node/3409074127"
    },
    "geometry": {
      "type": "Point",
      "coordinates": [
        21.5529446,
        41.3464763
      ]
    }
  },
  {
    "type": "Feature",
    "id": "node/3457966074",
    "properties": {
      "timestamp": "2015-04-15T18:18:56Z",
      "version": "1",
      "name": "Крипта",
      "name:en": "Cript",
      "historic": "monument",
      "id": "node/3457966074"
    },
    "geometry": {
      "type": "Point",
      "coordinates": [
        21.554646,
        41.3341123
      ]
    }
  },
  {
    "type": "Feature",
    "id": "node/3639421034",
    "properties": {
      "timestamp": "2020-09-29T19:40:53Z",
      "version": "6",
      "alt_name": "Чеплес",
      "internet_access": "no",
      "name": "Чеплес",
      "name:en": "Cheples",
      "operator": "ПСК „Солунска глава“ - Велес",
      "tourism": "alpine_hut",
      "website": "https://www.facebook.com/PlaninarskiDomCeples2013?rf=797496093598937",
      "wikidata": "Q12909591",
      "id": "node/3639421034"
    },
    "geometry": {
      "type": "Point",
      "coordinates": [
        21.4285926,
        41.6639916
      ]
    }
  },
  {
    "type": "Feature",
    "id": "node/3649158213",
    "properties": {
      "timestamp": "2017-06-20T21:01:50Z",
      "version": "2",
      "name": "Горна Белица",
      "name:en": "Gorna Belica",
      "tourism": "alpine_hut",
      "operator": " СД „Пеони“ - Скопје",
      "id": "node/3649158213"
    },
    "geometry": {
      "type": "Point",
      "coordinates": [
        21.3049471,
        41.6760151
      ]
    }
  },
  {
    "type": "Feature",
    "id": "node/3650382601",
    "properties": {
      "timestamp": "2015-07-14T10:34:07Z",
      "version": "1",
      "ele": "600",
      "name": "Драчевица",
      "tourism": "alpine_hut",
      "capacity": "40",
      "operator": "ПД „Просек“ - Неготино",
      "id": "node/3650382601"
    },
    "geometry": {
      "type": "Point",
      "coordinates": [
        22.1960327,
        41.3495265
      ]
    }
  },
  {
    "type": "Feature",
    "id": "node/3650767204",
    "properties": {
      "timestamp": "2015-07-14T14:00:24Z",
      "version": "1",
      "name": "Молотино",
      "tourism": "alpine_hut",
      "capacity": "18",
      "operator": "ПД „Козјак“ - Куманово",
      "id": "node/3650767204"
    },
    "geometry": {
      "type": "Point",
      "coordinates": [
        21.9277519,
        42.2845023
      ]
    }
  },
  {
    "type": "Feature",
    "id": "node/3664591841",
    "properties": {
      "timestamp": "2020-03-28T06:57:52Z",
      "version": "2",
      "ele": "1000",
      "name": "Папрадиште",
      "name:en": "Papradishte",
      "tourism": "alpine_hut",
      "capacity": "30",
      "int_name": "Papradište",
      "operator": "„Green power“ - Велес",
      "wikidata": "Q56255071",
      "id": "node/3664591841"
    },
    "geometry": {
      "type": "Point",
      "coordinates": [
        21.4387051,
        41.6416345
      ]
    }
  },
  {
    "type": "Feature",
    "id": "node/3668572971",
    "properties": {
      "timestamp": "2015-07-27T11:43:25Z",
      "version": "1",
      "name": "Скопје 63",
      "tourism": "alpine_hut",
      "operator": "ПД „Скопје 63“ - Скопје",
      "id": "node/3668572971"
    },
    "geometry": {
      "type": "Point",
      "coordinates": [
        21.4092236,
        41.9748842
      ]
    }
  },
  {
    "type": "Feature",
    "id": "node/3669966813",
    "properties": {
      "timestamp": "2019-05-28T07:35:57Z",
      "version": "2",
      "name": "Урсус спелеос",
      "name:en": "Usus Speleos",
      "tourism": "alpine_hut",
      "website": "https://ursusspeleos.com.mk/",
      "int_name": "Ursus Speleos",
      "operator": "ИД „Урсус спелеос“ - Скопје",
      "operator:en": "Ursus Speleos Exploration Society",
      "id": "node/3669966813"
    },
    "geometry": {
      "type": "Point",
      "coordinates": [
        21.1876474,
        41.5816794
      ]
    }
  },
  {
    "type": "Feature",
    "id": "node/3695208788",
    "properties": {
      "timestamp": "2015-08-13T12:16:49Z",
      "version": "1",
      "name": "Гоце Делчев",
      "name:en": "Goce Delchev",
      "historic": "monument",
      "id": "node/3695208788"
    },
    "geometry": {
      "type": "Point",
      "coordinates": [
        22.7742882,
        41.9643843
      ]
    }
  },
  {
    "type": "Feature",
    "id": "node/3826400406",
    "properties": {
      "timestamp": "2016-07-04T12:09:36Z",
      "version": "2",
      "name": "Ривиера",
      "name:en": "Riviera",
      "tourism": "hotel",
      "id": "node/3826400406"
    },
    "geometry": {
      "type": "Point",
      "coordinates": [
        20.8016881,
        41.1121098
      ]
    }
  },
  {
    "type": "Feature",
    "id": "node/3832475969",
    "properties": {
      "timestamp": "2015-11-12T12:23:46Z",
      "version": "1",
      "name": "Ливија",
      "name:en": "Livija",
      "tourism": "motel",
      "website": "http://hotelimakedonija.com.mk/mk/Hotel/124/Motel-Livija-Skopje",
      "id": "node/3832475969"
    },
    "geometry": {
      "type": "Point",
      "coordinates": [
        21.6053588,
        41.9431048
      ]
    }
  },
  {
    "type": "Feature",
    "id": "node/3832632324",
    "properties": {
      "timestamp": "2015-11-12T14:26:26Z",
      "version": "1",
      "name": "Тасино Чешмиче",
      "name:en": "Tasino Cheshmiche",
      "tourism": "hotel",
      "addr:street": "Белградска",
      "addr:housenumber": "28",
      "id": "node/3832632324"
    },
    "geometry": {
      "type": "Point",
      "coordinates": [
        21.4201316,
        41.9870966
      ]
    }
  },
  {
    "type": "Feature",
    "id": "node/4128156209",
    "properties": {
      "timestamp": "2020-07-30T07:53:45Z",
      "version": "5",
      "name": "Св. Кирил и Методиј",
      "name:de": "Kyrill und Method",
      "name:en": "Saints Cyril and Methodius",
      "tourism": "artwork",
      "historic": "memorial",
      "int_name": "Sv. Kiril i Metodi",
      "memorial": "statue",
      "inscription": "Св. Кирил и Методиј",
      "artwork_type": "statue",
      "subject:wikidata": "Q239925",
      "subject:wikipedia": "mk:Св. Кирил и Методиј",
      "id": "node/4128156209"
    },
    "geometry": {
      "type": "Point",
      "coordinates": [
        21.4339766,
        41.9977079
      ]
    }
  },
  {
    "type": "Feature",
    "id": "node/4154122110",
    "properties": {
      "timestamp": "2021-01-23T10:18:41Z",
      "version": "2",
      "artwork_type": "bust",
      "material": "marble",
      "name": "Круме Волнароски-Коља",
      "name:en": "Krume Volnaroski-Kolja",
      "tourism": "artwork",
      "id": "node/4154122110"
    },
    "geometry": {
      "type": "Point",
      "coordinates": [
        21.4316739,
        41.2258036
      ]
    }
  },
  {
    "type": "Feature",
    "id": "node/4167839093",
    "properties": {
      "timestamp": "2021-06-12T19:42:56Z",
      "version": "16",
      "addr:city": "Ohrid",
      "addr:housenumber": "4",
      "addr:postcode": "6000",
      "addr:street": "Ilindenska",
      "brand": "Bandzo's",
      "description": "Dear travelers,  We invite you to spend your weekend/holiday in Makedonija, Europe.  Enjoying a central location in the old town of Ohrid, directly on the lake shore, the house and a garden-terrace with a private beach, excellent conditions for families. ",
      "email": "ar.ohrid@gmail.com",
      "guest_house": "guest_house",
      "internet_access": "wlan",
      "internet_access:fee": "no",
      "name": "Апартмани \"Kрај eзеро\", Охрид",
      "name:en": "\"By the Lake\" apartments, Ohrid",
      "opening_hours": "24/7",
      "operator": "Georgi Piruze",
      "phone": "+38970550590",
      "rooms": "4",
      "smoking": "outside",
      "stars": "2",
      "tourism": "guest_house",
      "website": "https://sites.google.com/site/arohrid",
      "id": "node/4167839093"
    },
    "geometry": {
      "type": "Point",
      "coordinates": [
        20.794219,
        41.1114353
      ]
    }
  },
  {
    "type": "Feature",
    "id": "node/4180539742",
    "properties": {
      "timestamp": "2019-09-08T21:25:55Z",
      "version": "5",
      "name": "Галерија на икони",
      "name:en": "Icon Gallery",
      "name:fr": "Pinacothèque des icônes d’Ohrid",
      "name:pl": "Wystawa Ikon",
      "tourism": "gallery",
      "int_name": "Icon Gallery",
      "opening_hours": "Tu-Su 09:00-14:00",
      "id": "node/4180539742"
    },
    "geometry": {
      "type": "Point",
      "coordinates": [
        20.7952385,
        41.1143378
      ]
    }
  },
  {
    "type": "Feature",
    "id": "node/4206877090",
    "properties": {
      "timestamp": "2016-05-25T11:43:48Z",
      "version": "1",
      "name": "House Nativa",
      "tourism": "guest_house",
      "addr:street": "Лазо Трпоски",
      "addr:housenumber": "14",
      "id": "node/4206877090"
    },
    "geometry": {
      "type": "Point",
      "coordinates": [
        20.8121042,
        41.1130805
      ]
    }
  },
  {
    "type": "Feature",
    "id": "node/4258423490",
    "properties": {
      "timestamp": "2016-06-22T11:07:02Z",
      "version": "1",
      "name": "Guest House Stefani",
      "phone": "+38978218662",
      "tourism": "guest_house",
      "addr:street": "Илинденска",
      "addr:postcode": "1487",
      "addr:housenumber": "9",
      "id": "node/4258423490"
    },
    "geometry": {
      "type": "Point",
      "coordinates": [
        22.7225812,
        41.1791568
      ]
    }
  },
  {
    "type": "Feature",
    "id": "node/4276466090",
    "properties": {
      "timestamp": "2016-07-01T18:40:25Z",
      "version": "1",
      "name": "Villa Square Ohrid",
      "tourism": "hotel",
      "id": "node/4276466090"
    },
    "geometry": {
      "type": "Point",
      "coordinates": [
        20.7988026,
        41.1124995
      ]
    }
  },
  {
    "type": "Feature",
    "id": "node/4277058965",
    "properties": {
      "timestamp": "2016-07-01T21:19:57Z",
      "version": "1",
      "name": "Costa House",
      "tourism": "hotel",
      "id": "node/4277058965"
    },
    "geometry": {
      "type": "Point",
      "coordinates": [
        20.7978445,
        41.1125227
      ]
    }
  },
  {
    "type": "Feature",
    "id": "node/4278652891",
    "properties": {
      "timestamp": "2018-06-26T17:12:10Z",
      "version": "2",
      "name": "Villa Minami",
      "tourism": "guest_house",
      "website": "http://villaminami.com",
      "id": "node/4278652891"
    },
    "geometry": {
      "type": "Point",
      "coordinates": [
        20.812412,
        41.0522578
      ]
    }
  },
  {
    "type": "Feature",
    "id": "node/4281626594",
    "properties": {
      "timestamp": "2019-06-14T13:37:53Z",
      "version": "2",
      "name": "Апартмани Марија",
      "phone": "+389 75 285 609",
      "tourism": "hotel",
      "int_name": "Marija Apartments",
      "addr:street": "Цар Самоил",
      "addr:postcode": "6000",
      "internet_access": "wlan",
      "addr:housenumber": "34",
      "id": "node/4281626594"
    },
    "geometry": {
      "type": "Point",
      "coordinates": [
        20.797118,
        41.112396
      ]
    }
  },
  {
    "type": "Feature",
    "id": "node/4307731896",
    "properties": {
      "timestamp": "2016-07-17T19:32:00Z",
      "version": "1",
      "name": "Vila Perla",
      "tourism": "hotel",
      "addr:street": "KEJ 8 НОЕМВРИ",
      "opening_hours": "24/7",
      "internet_access": "wlan",
      "id": "node/4307731896"
    },
    "geometry": {
      "type": "Point",
      "coordinates": [
        20.6791191,
        41.178763
      ]
    }
  },
  {
    "type": "Feature",
    "id": "node/4367466190",
    "properties": {
      "timestamp": "2016-08-26T08:22:28Z",
      "version": "1",
      "name": "ARSS Apartment Skopje Main Square",
      "phone": "+38970332285",
      "rooms": "3",
      "kitchen": "fully equipped",
      "smoking": "outside",
      "tourism": "guest_house",
      "website": "https://www.facebook.com/skopjeapartments",
      "cable tv": "yes",
      "addr:city": "Скопје",
      "addr:street": "Македонија",
      "addr:postcode": "1000",
      "internet_access": "yes",
      "addr:housenumber": "22",
      "internet_access:fee": "no",
      "id": "node/4367466190"
    },
    "geometry": {
      "type": "Point",
      "coordinates": [
        21.4312446,
        41.9951281
      ]
    }
  },
  {
    "type": "Feature",
    "id": "node/4411126494",
    "properties": {
      "timestamp": "2021-06-30T19:43:12Z",
      "version": "6",
      "artwork_type": "statue",
      "name": "Статуа Филип II",
      "name:en": "Philip II Statue",
      "name:mk": "Filip Vtori Statua",
      "tourism": "artwork",
      "id": "node/4411126494"
    },
    "geometry": {
      "type": "Point",
      "coordinates": [
        21.3347596,
        41.0302025
      ]
    }
  },
  {
    "type": "Feature",
    "id": "node/4435035191",
    "properties": {
      "timestamp": "2019-07-03T19:35:32Z",
      "version": "2",
      "name": "Sunrise",
      "email": "campingsunrise.eu@gmail.com",
      "phone": "+38972586966",
      "tourism": "camp_site",
      "website": "http://www.campingsunrise.eu",
      "operator": "Dutch Alliance",
      "addr:street": "Kalista",
      "addr:postcode": "6330",
      "opening_hours": "24/7",
      "internet_access": "wlan",
      "id": "node/4435035191"
    },
    "geometry": {
      "type": "Point",
      "coordinates": [
        20.6503978,
        41.1606721
      ]
    }
  },
  {
    "type": "Feature",
    "id": "node/4477202789",
    "properties": {
      "timestamp": "2016-11-02T16:13:34Z",
      "version": "1",
      "name": "Вера Јоциќ",
      "name:en": "Vera Jocik",
      "name:mk": "Вера Јоциќ",
      "historic": "monument",
      "id": "node/4477202789"
    },
    "geometry": {
      "type": "Point",
      "coordinates": [
        21.4283664,
        42.0016804
      ]
    }
  },
  {
    "type": "Feature",
    "id": "node/4512398450",
    "properties": {
      "timestamp": "2016-11-20T17:20:36Z",
      "version": "1",
      "name": "Platform B",
      "tourism": "viewpoint",
      "id": "node/4512398450"
    },
    "geometry": {
      "type": "Point",
      "coordinates": [
        21.9533467,
        42.2633296
      ]
    }
  },
  {
    "type": "Feature",
    "id": "node/4512399865",
    "properties": {
      "timestamp": "2019-05-19T10:25:38Z",
      "version": "2",
      "name": "Ограденица",
      "name:en": "Sanctuary Wall E",
      "tourism": "viewpoint",
      "id": "node/4512399865"
    },
    "geometry": {
      "type": "Point",
      "coordinates": [
        21.95375,
        42.2637118
      ]
    }
  },
  {
    "type": "Feature",
    "id": "node/4552867896",
    "properties": {
      "timestamp": "2021-07-01T15:58:14Z",
      "version": "5",
      "historic": "memorial",
      "name": "Kaмен мост",
      "name:en": "The Stone Bridge",
      "name:tr": "Taş Köprü",
      "id": "node/4552867896"
    },
    "geometry": {
      "type": "Point",
      "coordinates": [
        21.4333931,
        41.9971495
      ]
    }
  },
  {
    "type": "Feature",
    "id": "node/4575841429",
    "properties": {
      "timestamp": "2019-01-25T12:32:37Z",
      "version": "3",
      "name": "Блаже Конески",
      "historic": "monument",
      "id": "node/4575841429"
    },
    "geometry": {
      "type": "Point",
      "coordinates": [
        21.5506707,
        41.3451329
      ]
    }
  },
  {
    "type": "Feature",
    "id": "node/4610351504",
    "properties": {
      "timestamp": "2017-01-15T20:48:59Z",
      "version": "1",
      "name": "Anmarin villa",
      "email": "makacoski@yahoo.com",
      "phone": "070325056",
      "name:en": "Anmarin villa",
      "name:mk": "Anmarin villa",
      "tourism": "guest_house",
      "website": "http://www.anmarin.com",
      "internet_access": "wlan",
      "id": "node/4610351504"
    },
    "geometry": {
      "type": "Point",
      "coordinates": [
        20.8058338,
        41.0312534
      ]
    }
  },
  {
    "type": "Feature",
    "id": "node/4702316095",
    "properties": {
      "timestamp": "2021-03-10T12:36:44Z",
      "version": "5",
      "addr:city": "Ohrid",
      "addr:housenumber": "39",
      "addr:postcode": "6000",
      "addr:street": "Беќир Али Риза",
      "email": "hostelagarthaohrid@hotmail.com",
      "internet_access": "wlan",
      "name": "Agartha Hostel Ohrid",
      "name:en": "Agartha Hostel",
      "opening_hours": "24/7",
      "phone": "0038977644708",
      "smoking": "outside",
      "tourism": "hostel",
      "website": "http://www.hostelagartha.com",
      "id": "node/4702316095"
    },
    "geometry": {
      "type": "Point",
      "coordinates": [
        20.8019743,
        41.1200679
      ]
    }
  },
  {
    "type": "Feature",
    "id": "node/4741049668",
    "properties": {
      "timestamp": "2017-07-05T14:02:47Z",
      "version": "2",
      "name": "Vila Ana Marija",
      "tourism": "guest_house",
      "id": "node/4741049668"
    },
    "geometry": {
      "type": "Point",
      "coordinates": [
        22.3591311,
        42.1906347
      ]
    }
  },
  {
    "type": "Feature",
    "id": "node/4757336509",
    "properties": {
      "timestamp": "2017-03-27T04:41:41Z",
      "version": "1",
      "name": "Hotel Elite Plaza",
      "tourism": "hotel",
      "internet_access": "wlan",
      "internet_access:fee": "yes",
      "id": "node/4757336509"
    },
    "geometry": {
      "type": "Point",
      "coordinates": [
        21.416879,
        41.9986179
      ]
    }
  },
  {
    "type": "Feature",
    "id": "node/4907386415",
    "properties": {
      "timestamp": "2017-06-10T11:39:14Z",
      "version": "1",
      "name": "Борецот",
      "historic": "monument",
      "id": "node/4907386415"
    },
    "geometry": {
      "type": "Point",
      "coordinates": [
        21.5025867,
        41.3738524
      ]
    }
  },
  {
    "type": "Feature",
    "id": "node/4919812121",
    "properties": {
      "timestamp": "2017-06-16T22:02:53Z",
      "version": "1",
      "name": "Antigona Apartments",
      "phone": "+389 78866935",
      "name:uk": "Апартаменти Antigona",
      "tourism": "guest_house",
      "addr:street": "Востаничка",
      "internet_access": "wlan",
      "addr:housenumber": "128",
      "id": "node/4919812121"
    },
    "geometry": {
      "type": "Point",
      "coordinates": [
        21.432752,
        41.9788535
      ]
    }
  },
  {
    "type": "Feature",
    "id": "node/4972835907",
    "properties": {
      "timestamp": "2017-07-15T23:01:28Z",
      "version": "1",
      "name": "Сергеј Есенин",
      "historic": "monument",
      "id": "node/4972835907"
    },
    "geometry": {
      "type": "Point",
      "coordinates": [
        20.6783749,
        41.1736526
      ]
    }
  },
  {
    "type": "Feature",
    "id": "node/5009024422",
    "properties": {
      "timestamp": "2021-06-12T21:09:12Z",
      "version": "4",
      "addr:housenumber": "10",
      "addr:postcode": "6000",
      "addr:street": "Боро Шаин",
      "name": "НУ Завод за заштита на спомениците на културата и Музеј-Охрид",
      "name:en": "Institute for Protection of Monuments of Culture and Museum-Ohrid",
      "tourism": "museum",
      "website": "http://muzejohrid.mk/en/",
      "id": "node/5009024422"
    },
    "geometry": {
      "type": "Point",
      "coordinates": [
        20.7945086,
        41.1131932
      ]
    }
  },
  {
    "type": "Feature",
    "id": "node/5024215571",
    "properties": {
      "timestamp": "2017-08-09T11:41:33Z",
      "version": "3",
      "name": "Вила Принц",
      "name:en": "Villa Prince",
      "tourism": "hotel",
      "id": "node/5024215571"
    },
    "geometry": {
      "type": "Point",
      "coordinates": [
        21.446928,
        41.8096384
      ]
    }
  },
  {
    "type": "Feature",
    "id": "node/5055432425",
    "properties": {
      "timestamp": "2019-05-22T03:52:50Z",
      "version": "3",
      "name": "Емин-бегова кула",
      "name:en": "Emin Bey Tower",
      "historic": "monument",
      "int_name": "Emin-beg Kula",
      "id": "node/5055432425"
    },
    "geometry": {
      "type": "Point",
      "coordinates": [
        22.1823517,
        42.0769461
      ]
    }
  },
  {
    "type": "Feature",
    "id": "node/5055455123",
    "properties": {
      "timestamp": "2021-08-18T23:01:30Z",
      "version": "4",
      "historic": "monument",
      "int_name": "Saat Kula",
      "name": "Саат-кула",
      "name:en": "Clock Tower",
      "id": "node/5055455123"
    },
    "geometry": {
      "type": "Point",
      "coordinates": [
        22.1818109,
        42.0792053
      ]
    }
  },
  {
    "type": "Feature",
    "id": "node/5078898526",
    "properties": {
      "timestamp": "2019-04-02T17:25:31Z",
      "version": "3",
      "name": "Каневче",
      "phone": "+38970424304",
      "name:en": "Kanevce",
      "tourism": "guest_house",
      "operator": "Fane",
      "addr:street": "Ilindenska",
      "addr:postcode": "6000",
      "opening_hours": "24/7",
      "internet_access": "wlan",
      "addr:housenumber": "3",
      "id": "node/5078898526"
    },
    "geometry": {
      "type": "Point",
      "coordinates": [
        20.7939245,
        41.1114873
      ]
    }
  },
  {
    "type": "Feature",
    "id": "node/5110937025",
    "properties": {
      "timestamp": "2018-04-26T18:35:28Z",
      "version": "2",
      "name": "Hotel Elsa",
      "tourism": "hotel",
      "addr:street": "луј пастер",
      "id": "node/5110937025"
    },
    "geometry": {
      "type": "Point",
      "coordinates": [
        21.4295391,
        41.9930093
      ]
    }
  },
  {
    "type": "Feature",
    "id": "node/5292123324",
    "properties": {
      "timestamp": "2017-12-18T18:23:22Z",
      "version": "1",
      "name": "Жил Верн 11, 11а, 11б",
      "tourism": "viewpoint",
      "id": "node/5292123324"
    },
    "geometry": {
      "type": "Point",
      "coordinates": [
        21.441234,
        41.9838309
      ]
    }
  },
  {
    "type": "Feature",
    "id": "node/5292123329",
    "properties": {
      "timestamp": "2017-12-18T18:23:42Z",
      "version": "1",
      "name": "Мајка Тереза 60",
      "tourism": "viewpoint",
      "id": "node/5292123329"
    },
    "geometry": {
      "type": "Point",
      "coordinates": [
        21.4176856,
        41.9884165
      ]
    }
  },
  {
    "type": "Feature",
    "id": "node/5292130822",
    "properties": {
      "timestamp": "2017-12-18T18:23:15Z",
      "version": "1",
      "name": "Челопек 76",
      "tourism": "viewpoint",
      "id": "node/5292130822"
    },
    "geometry": {
      "type": "Point",
      "coordinates": [
        21.4453566,
        42.0037361
      ]
    }
  },
  {
    "type": "Feature",
    "id": "node/5292130831",
    "properties": {
      "timestamp": "2017-12-18T18:23:37Z",
      "version": "1",
      "name": "Tome Arsovski 6",
      "tourism": "viewpoint",
      "id": "node/5292130831"
    },
    "geometry": {
      "type": "Point",
      "coordinates": [
        21.4320224,
        41.9854097
      ]
    }
  },
  {
    "type": "Feature",
    "id": "node/5292130838",
    "properties": {
      "timestamp": "2017-12-18T18:23:46Z",
      "version": "1",
      "name": "Рилски конгрес 100",
      "tourism": "viewpoint",
      "id": "node/5292130838"
    },
    "geometry": {
      "type": "Point",
      "coordinates": [
        21.431652,
        41.9791819
      ]
    }
  },
  {
    "type": "Feature",
    "id": "node/5292130846",
    "properties": {
      "timestamp": "2017-12-18T18:23:52Z",
      "version": "1",
      "name": "Јосиф Јосифовски Свештарот 38",
      "tourism": "viewpoint",
      "id": "node/5292130846"
    },
    "geometry": {
      "type": "Point",
      "coordinates": [
        21.4370828,
        41.9901377
      ]
    }
  },
  {
    "type": "Feature",
    "id": "node/5292130923",
    "properties": {
      "timestamp": "2017-12-18T18:23:18Z",
      "version": "1",
      "name": "Todor Panica 7",
      "tourism": "viewpoint",
      "id": "node/5292130923"
    },
    "geometry": {
      "type": "Point",
      "coordinates": [
        21.4406935,
        41.9805073
      ]
    }
  },
  {
    "type": "Feature",
    "id": "node/5292130929",
    "properties": {
      "timestamp": "2017-12-18T18:23:24Z",
      "version": "1",
      "name": "Kozara 28",
      "tourism": "viewpoint",
      "id": "node/5292130929"
    },
    "geometry": {
      "type": "Point",
      "coordinates": [
        21.4193222,
        41.9911517
      ]
    }
  },
  {
    "type": "Feature",
    "id": "node/5292130936",
    "properties": {
      "timestamp": "2017-12-18T18:23:32Z",
      "version": "1",
      "name": "Jurij Gagarin 65a",
      "tourism": "viewpoint",
      "id": "node/5292130936"
    },
    "geometry": {
      "type": "Point",
      "coordinates": [
        21.3927793,
        41.9970637
      ]
    }
  },
  {
    "type": "Feature",
    "id": "node/5292131421",
    "properties": {
      "timestamp": "2017-12-18T18:23:25Z",
      "version": "1",
      "name": "Teodosij Gologanov 69",
      "tourism": "viewpoint",
      "id": "node/5292131421"
    },
    "geometry": {
      "type": "Point",
      "coordinates": [
        21.413215,
        41.994869
      ]
    }
  },
  {
    "type": "Feature",
    "id": "node/5327471601",
    "properties": {
      "timestamp": "2021-06-30T19:22:01Z",
      "version": "2",
      "amenity": "place_of_worship",
      "denomination": "orthodox",
      "historic": "yes",
      "name": "Св. Троица",
      "name:en": "St. Trinity",
      "name:pl": "Cerkiew św. Trójcy",
      "religion": "christian",
      "tourism": "attraction",
      "wikipedia": "mk:Св._Троица_(Битола)",
      "id": "node/5327471601"
    },
    "geometry": {
      "type": "Point",
      "coordinates": [
        21.3415263,
        41.006774
      ]
    }
  },
  {
    "type": "Feature",
    "id": "node/5359487099",
    "properties": {
      "timestamp": "2019-06-14T02:21:57Z",
      "version": "2",
      "ele": "740",
      "name": "Дувало",
      "name:en": "Duvalo",
      "name:pl": "Duvalo",
      "natural": "volcano",
      "tourism": "attraction",
      "alt_name": "Коселска Чадилка",
      "wikidata": "Q5317613",
      "wikipedia": "en:Duvalo",
      "id": "node/5359487099"
    },
    "geometry": {
      "type": "Point",
      "coordinates": [
        20.837127,
        41.169406
      ]
    }
  },
  {
    "type": "Feature",
    "id": "node/5407061323",
    "properties": {
      "timestamp": "2018-02-12T11:55:45Z",
      "version": "1",
      "name": "Вила Блаце",
      "email": "muhamed.ibrahimi@live.con",
      "phone": "0038970310883",
      "name:en": "Villa Blacë",
      "tourism": "guest_house",
      "operator": "Muhamed Ibrahimk",
      "addr:street": "Blace rd",
      "addr:postcode": "1000",
      "opening_hours": "24/7",
      "id": "node/5407061323"
    },
    "geometry": {
      "type": "Point",
      "coordinates": [
        21.3328936,
        42.1323055
      ]
    }
  },
  {
    "type": "Feature",
    "id": "node/5528973221",
    "properties": {
      "timestamp": "2018-04-04T20:39:15Z",
      "version": "1",
      "name": "adrsscreen home",
      "email": "adrsscreen@gmail.com",
      "phone": "+38971611422",
      "tourism": "apartment",
      "website": "http://www.facebook.com",
      "operator": "adrsscreen",
      "addr:street": "Србо Томовиќ",
      "addr:postcode": "1300",
      "internet_access": "wlan",
      "addr:housenumber": "25/1-9",
      "id": "node/5528973221"
    },
    "geometry": {
      "type": "Point",
      "coordinates": [
        21.7043546,
        42.137227
      ]
    }
  },
  {
    "type": "Feature",
    "id": "node/5549672423",
    "properties": {
      "timestamp": "2018-04-13T08:11:44Z",
      "version": "1",
      "name": "Valentin 2",
      "tourism": "hostel",
      "wheelchair": "no",
      "opening_hours": "14:00-22:00",
      "internet_access": "wlan",
      "id": "node/5549672423"
    },
    "geometry": {
      "type": "Point",
      "coordinates": [
        21.4432433,
        41.9891739
      ]
    }
  },
  {
    "type": "Feature",
    "id": "node/5551392392",
    "properties": {
      "timestamp": "2018-04-13T21:41:25Z",
      "version": "1",
      "name": "Димче Кошаркоски",
      "historic": "monument",
      "id": "node/5551392392"
    },
    "geometry": {
      "type": "Point",
      "coordinates": [
        20.6779833,
        41.1749451
      ]
    }
  },
  {
    "type": "Feature",
    "id": "node/5551410941",
    "properties": {
      "timestamp": "2018-04-13T21:45:56Z",
      "version": "2",
      "name": "Петре Гончески - Гиле",
      "historic": "monument",
      "id": "node/5551410941"
    },
    "geometry": {
      "type": "Point",
      "coordinates": [
        20.6781067,
        41.1752843
      ]
    }
  },
  {
    "type": "Feature",
    "id": "node/5600348022",
    "properties": {
      "timestamp": "2019-04-21T06:28:26Z",
      "version": "2",
      "name": "Villa Filip",
      "name:mk": "Вила Филип",
      "tourism": "guest_house",
      "id": "node/5600348022"
    },
    "geometry": {
      "type": "Point",
      "coordinates": [
        20.7828356,
        40.9614032
      ]
    }
  },
  {
    "type": "Feature",
    "id": "node/5602643521",
    "properties": {
      "timestamp": "2018-05-07T16:58:55Z",
      "version": "1",
      "name": "Villa Marto",
      "tourism": "apartment",
      "id": "node/5602643521"
    },
    "geometry": {
      "type": "Point",
      "coordinates": [
        20.7958948,
        41.1134447
      ]
    }
  },
  {
    "type": "Feature",
    "id": "node/5646412521",
    "properties": {
      "timestamp": "2018-05-27T21:27:56Z",
      "version": "1",
      "name": "Airbnb",
      "tourism": "apartment",
      "id": "node/5646412521"
    },
    "geometry": {
      "type": "Point",
      "coordinates": [
        20.7980753,
        41.1138784
      ]
    }
  },
  {
    "type": "Feature",
    "id": "node/5699016423",
    "properties": {
      "timestamp": "2019-08-24T19:54:52Z",
      "version": "2",
      "name": "Eтнолошки музей",
      "name:en": "Ethnographic museum",
      "tourism": "museum",
      "id": "node/5699016423"
    },
    "geometry": {
      "type": "Point",
      "coordinates": [
        21.0506131,
        41.0240503
      ]
    }
  },
  {
    "type": "Feature",
    "id": "node/5720911006",
    "properties": {
      "timestamp": "2019-04-21T06:17:40Z",
      "version": "2",
      "name": "Roman Camp Ruins",
      "name:mk": "Римскa тврдина",
      "tourism": "attraction",
      "id": "node/5720911006"
    },
    "geometry": {
      "type": "Point",
      "coordinates": [
        20.797383,
        40.9962993
      ]
    }
  },
  {
    "type": "Feature",
    "id": "node/5724919828",
    "properties": {
      "timestamp": "2018-06-28T07:20:37Z",
      "version": "1",
      "name": "Rotonda Konjuh",
      "historic": "ruins",
      "historic:civilization": "ancient_roman",
      "id": "node/5724919828"
    },
    "geometry": {
      "type": "Point",
      "coordinates": [
        21.9658672,
        42.0949995
      ]
    }
  },
  {
    "type": "Feature",
    "id": "node/5725973124",
    "properties": {
      "timestamp": "2019-05-29T22:28:25Z",
      "version": "2",
      "name": "Стоби",
      "historic": "archaeological_site",
      "int_name": "Stobi",
      "historic:civilization": "ancient_roman",
      "id": "node/5725973124"
    },
    "geometry": {
      "type": "Point",
      "coordinates": [
        21.9735027,
        41.551541
      ]
    }
  },
  {
    "type": "Feature",
    "id": "node/5737128421",
    "properties": {
      "timestamp": "2018-07-03T18:09:05Z",
      "version": "1",
      "name": "Салвадор Аљенде",
      "tourism": "apartment",
      "addr:street": "Салвадор Аљенде",
      "addr:housenumber": "71",
      "id": "node/5737128421"
    },
    "geometry": {
      "type": "Point",
      "coordinates": [
        21.4214103,
        41.9844223
      ]
    }
  },
  {
    "type": "Feature",
    "id": "node/5747857129",
    "properties": {
      "timestamp": "2018-07-08T21:27:06Z",
      "version": "2",
      "name": "Дивине",
      "tourism": "guest_house",
      "id": "node/5747857129"
    },
    "geometry": {
      "type": "Point",
      "coordinates": [
        22.9355528,
        41.7300975
      ]
    }
  },
  {
    "type": "Feature",
    "id": "node/5749502343",
    "properties": {
      "timestamp": "2018-09-30T20:26:57Z",
      "version": "3",
      "name": "Скокото",
      "tourism": "information",
      "information": "board",
      "id": "node/5749502343"
    },
    "geometry": {
      "type": "Point",
      "coordinates": [
        22.9874666,
        41.7273576
      ]
    }
  },
  {
    "type": "Feature",
    "id": "node/5775648352",
    "properties": {
      "timestamp": "2019-05-25T22:52:02Z",
      "version": "2",
      "name": "Хотел Ален",
      "name:en": "Hotel Aen",
      "name:mk": "Хотел Ален",
      "tourism": "hotel",
      "int_name": "Hotel Aen",
      "internet_access": "wlan",
      "id": "node/5775648352"
    },
    "geometry": {
      "type": "Point",
      "coordinates": [
        21.4380625,
        42.0009974
      ]
    }
  },
  {
    "type": "Feature",
    "id": "node/5826726988",
    "properties": {
      "timestamp": "2018-08-12T09:26:41Z",
      "version": "1",
      "name": "Mokliste Comfort",
      "tourism": "motel",
      "id": "node/5826726988"
    },
    "geometry": {
      "type": "Point",
      "coordinates": [
        22.0397581,
        41.3902439
      ]
    }
  },
  {
    "type": "Feature",
    "id": "node/5837780717",
    "properties": {
      "timestamp": "2018-08-17T07:17:49Z",
      "version": "1",
      "name": "Hotel Park",
      "tourism": "hotel",
      "id": "node/5837780717"
    },
    "geometry": {
      "type": "Point",
      "coordinates": [
        20.7990804,
        41.0900379
      ]
    }
  },
  {
    "type": "Feature",
    "id": "node/5840164485",
    "properties": {
      "timestamp": "2018-08-18T17:30:54Z",
      "version": "1",
      "name": "Vlez levo od Vasov elektrika",
      "tourism": "apartment",
      "addr:street": "9 Мај",
      "addr:housenumber": "40",
      "id": "node/5840164485"
    },
    "geometry": {
      "type": "Point",
      "coordinates": [
        21.415128,
        41.9952645
      ]
    }
  },
  {
    "type": "Feature",
    "id": "node/5926438456",
    "properties": {
      "timestamp": "2019-06-14T13:37:53Z",
      "version": "3",
      "name": "Ард ден Долард",
      "name:en": "Aard den Dolaard",
      "name:nl": "Aard den Dolaard",
      "historic": "memorial",
      "int_name": "Aard den Dolaard",
      "id": "node/5926438456"
    },
    "geometry": {
      "type": "Point",
      "coordinates": [
        20.8078335,
        41.1057278
      ]
    }
  },
  {
    "type": "Feature",
    "id": "node/5931045507",
    "properties": {
      "timestamp": "2018-09-26T09:15:42Z",
      "version": "1",
      "name": "Jana Apartments",
      "tourism": "guest_house",
      "id": "node/5931045507"
    },
    "geometry": {
      "type": "Point",
      "coordinates": [
        22.5047279,
        41.1464743
      ]
    }
  },
  {
    "type": "Feature",
    "id": "node/5932385185",
    "properties": {
      "timestamp": "2018-09-26T19:06:10Z",
      "version": "1",
      "name": "Residence",
      "name:mk": "Резиденција Главинов",
      "tourism": "apartment",
      "addr:street": "Христо Татарчев 292А",
      "addr:postcode": "1000",
      "internet_access": "wlan",
      "addr:housenumber": "292 А",
      "id": "node/5932385185"
    },
    "geometry": {
      "type": "Point",
      "coordinates": [
        21.4421896,
        41.9586194
      ]
    }
  },
  {
    "type": "Feature",
    "id": "node/6040732548",
    "properties": {
      "timestamp": "2018-12-07T08:54:52Z",
      "version": "2",
      "name": "Nordic Hostel",
      "tourism": "hostel",
      "website": "https://nordichostel.com",
      "addr:city": "Cкoпje",
      "addr:street": "Petar Pop Arsov",
      "addr:postcode": "1000",
      "addr:housenumber": "14a",
      "id": "node/6040732548"
    },
    "geometry": {
      "type": "Point",
      "coordinates": [
        21.4159229,
        41.999111
      ]
    }
  },
  {
    "type": "Feature",
    "id": "node/6136130987",
    "properties": {
      "timestamp": "2018-12-14T00:47:28Z",
      "version": "1",
      "name": "payatina-150",
      "historic": "monument",
      "id": "node/6136130987"
    },
    "geometry": {
      "type": "Point",
      "coordinates": [
        21.6414729,
        41.9834
      ]
    }
  },
  {
    "type": "Feature",
    "id": "node/6349721704",
    "properties": {
      "timestamp": "2019-03-20T13:44:00Z",
      "version": "1",
      "name": "Споменик на Малешевскиот (Малешки) народноослободителен одред",
      "historic": "memorial",
      "memorial": "plaque",
      "inscription": "Малешевскиот (Малешки) народноослободителен одред бил територијална партизанска единица на НОВ и ПОМ. Формиран е во месноста Паруца, кота 1356 на пл. Плачковица и делувал од 25 август до ноември 1944. Одредот е формиран од 50 борци од Малешевијата. Ги нап",
      "id": "node/6349721704"
    },
    "geometry": {
      "type": "Point",
      "coordinates": [
        22.6569551,
        41.7213441
      ]
    }
  },
  {
    "type": "Feature",
    "id": "node/6370381412",
    "properties": {
      "timestamp": "2019-03-29T14:25:18Z",
      "version": "1",
      "name": "Вила Тесла",
      "name:en": "Vila Tesla",
      "tourism": "guest_house",
      "id": "node/6370381412"
    },
    "geometry": {
      "type": "Point",
      "coordinates": [
        20.8092216,
        41.032074
      ]
    }
  },
  {
    "type": "Feature",
    "id": "node/6386335237",
    "properties": {
      "timestamp": "2019-05-06T12:23:47Z",
      "version": "2",
      "name": "Видиковец",
      "tourism": "viewpoint",
      "int_name": "Viewpoint",
      "id": "node/6386335237"
    },
    "geometry": {
      "type": "Point",
      "coordinates": [
        21.3820452,
        41.963909
      ]
    }
  },
  {
    "type": "Feature",
    "id": "node/6551503709",
    "properties": {
      "timestamp": "2019-06-16T18:45:32Z",
      "version": "1",
      "name": "Hotel z",
      "tourism": "hotel",
      "id": "node/6551503709"
    },
    "geometry": {
      "type": "Point",
      "coordinates": [
        21.9447499,
        41.5784668
      ]
    }
  },
  {
    "type": "Feature",
    "id": "node/6588760388",
    "properties": {
      "timestamp": "2019-07-04T12:24:06Z",
      "version": "1",
      "name": "Old Town Hostel",
      "tourism": "hostel",
      "internet_access": "wlan",
      "id": "node/6588760388"
    },
    "geometry": {
      "type": "Point",
      "coordinates": [
        20.799667,
        41.1148214
      ]
    }
  },
  {
    "type": "Feature",
    "id": "node/6643160007",
    "properties": {
      "timestamp": "2019-07-24T10:17:47Z",
      "version": "2",
      "name": "Breeze Dream Apartment",
      "tourism": "guest_house",
      "addr:postcode": "6000",
      "id": "node/6643160007"
    },
    "geometry": {
      "type": "Point",
      "coordinates": [
        20.8080677,
        41.1103782
      ]
    }
  },
  {
    "type": "Feature",
    "id": "node/6754217649",
    "properties": {
      "timestamp": "2019-08-28T20:15:59Z",
      "version": "1",
      "name": "House Kostoski",
      "tourism": "apartment",
      "addr:city": "Охрид",
      "addr:street": "Александар Гушо",
      "addr:postcode": "6000",
      "internet_access": "yes",
      "addr:housenumber": "5",
      "internet_access:fee": "no",
      "id": "node/6754217649"
    },
    "geometry": {
      "type": "Point",
      "coordinates": [
        20.813904,
        41.1191737
      ]
    }
  },
  {
    "type": "Feature",
    "id": "node/6828344527",
    "properties": {
      "timestamp": "2019-09-26T17:14:16Z",
      "version": "1",
      "name": "Art B&B",
      "tourism": "guest_house",
      "guest_house": "bed_and_breakfast",
      "internet_access": "wlan",
      "internet_access:fee": "no",
      "id": "node/6828344527"
    },
    "geometry": {
      "type": "Point",
      "coordinates": [
        20.8113131,
        41.109396
      ]
    }
  },
  {
    "type": "Feature",
    "id": "node/6830542290",
    "properties": {
      "timestamp": "2019-09-27T11:49:39Z",
      "version": "1",
      "name": "Imperial",
      "tourism": "hotel",
      "id": "node/6830542290"
    },
    "geometry": {
      "type": "Point",
      "coordinates": [
        20.8736743,
        41.7863558
      ]
    }
  },
  {
    "type": "Feature",
    "id": "node/6831648788",
    "properties": {
      "timestamp": "2019-09-27T21:15:37Z",
      "version": "1",
      "name": "Arena",
      "tourism": "hostel",
      "id": "node/6831648788"
    },
    "geometry": {
      "type": "Point",
      "coordinates": [
        20.812807,
        41.1154855
      ]
    }
  },
  {
    "type": "Feature",
    "id": "node/6831648886",
    "properties": {
      "timestamp": "2019-09-27T21:15:49Z",
      "version": "1",
      "name": "Villa cun",
      "tourism": "hotel",
      "id": "node/6831648886"
    },
    "geometry": {
      "type": "Point",
      "coordinates": [
        20.7984298,
        41.1122995
      ]
    }
  },
  {
    "type": "Feature",
    "id": "node/6833101185",
    "properties": {
      "timestamp": "2020-08-16T20:41:34Z",
      "version": "2",
      "historic": "memorial",
      "name": "Коста Абраш",
      "id": "node/6833101185"
    },
    "geometry": {
      "type": "Point",
      "coordinates": [
        20.795694,
        41.1120953
      ]
    }
  },
  {
    "type": "Feature",
    "id": "node/6834463390",
    "properties": {
      "timestamp": "2019-09-29T13:00:39Z",
      "version": "1",
      "name": "Venco",
      "tourism": "apartment",
      "id": "node/6834463390"
    },
    "geometry": {
      "type": "Point",
      "coordinates": [
        20.8095464,
        41.1070035
      ]
    }
  },
  {
    "type": "Feature",
    "id": "node/6837039889",
    "properties": {
      "timestamp": "2019-09-30T09:36:04Z",
      "version": "1",
      "name": "Sara Ga",
      "tourism": "apartment",
      "id": "node/6837039889"
    },
    "geometry": {
      "type": "Point",
      "coordinates": [
        20.795174,
        41.1174659
      ]
    }
  },
  {
    "type": "Feature",
    "id": "node/6867737585",
    "properties": {
      "timestamp": "2019-10-10T17:28:43Z",
      "version": "1",
      "name": "Green Space Hotel",
      "phone": "075 344 780",
      "tourism": "hotel",
      "addr:street": "Гоце Делчев",
      "addr:postcode": "6000",
      "internet_access": "wlan",
      "addr:housenumber": "389",
      "id": "node/6867737585"
    },
    "geometry": {
      "type": "Point",
      "coordinates": [
        20.7712139,
        41.1250537
      ]
    }
  },
  {
    "type": "Feature",
    "id": "node/6993445186",
    "properties": {
      "timestamp": "2021-10-06T05:04:20Z",
      "version": "3",
      "artwork_type": "bust",
      "name": "Естреја Овадија-Мара",
      "name:he": "מונומנט אסתר עובדיה",
      "tourism": "artwork",
      "id": "node/6993445186"
    },
    "geometry": {
      "type": "Point",
      "coordinates": [
        21.3352833,
        41.0325535
      ]
    }
  },
  {
    "type": "Feature",
    "id": "node/7058905589",
    "properties": {
      "timestamp": "2019-12-16T01:01:37Z",
      "version": "1",
      "name": "Afomaz Helios",
      "tourism": "apartment",
      "id": "node/7058905589"
    },
    "geometry": {
      "type": "Point",
      "coordinates": [
        20.9051255,
        41.7943328
      ]
    }
  },
  {
    "type": "Feature",
    "id": "node/7058905785",
    "properties": {
      "timestamp": "2019-12-16T01:01:36Z",
      "version": "1",
      "name": "Standox 2000 Helios",
      "tourism": "apartment",
      "id": "node/7058905785"
    },
    "geometry": {
      "type": "Point",
      "coordinates": [
        20.9698559,
        42.0117514
      ]
    }
  },
  {
    "type": "Feature",
    "id": "node/7058905789",
    "properties": {
      "timestamp": "2019-12-16T01:01:38Z",
      "version": "1",
      "name": "Suna Helios",
      "tourism": "apartment",
      "id": "node/7058905789"
    },
    "geometry": {
      "type": "Point",
      "coordinates": [
        20.8079764,
        41.1137398
      ]
    }
  },
  {
    "type": "Feature",
    "id": "node/7083757585",
    "properties": {
      "timestamp": "2019-12-25T11:04:17Z",
      "version": "1",
      "name": "Euro komerc Helios",
      "tourism": "apartment",
      "id": "node/7083757585"
    },
    "geometry": {
      "type": "Point",
      "coordinates": [
        20.8839992,
        41.8780791
      ]
    }
  },
  {
    "type": "Feature",
    "id": "node/7124138432",
    "properties": {
      "timestamp": "2020-01-11T10:54:55Z",
      "version": "1",
      "name": "Споменик на Дојрана",
      "access": "yes",
      "historic": "monument",
      "id": "node/7124138432"
    },
    "geometry": {
      "type": "Point",
      "coordinates": [
        22.7227512,
        41.1857198
      ]
    }
  },
  {
    "type": "Feature",
    "id": "node/7291417085",
    "properties": {
      "timestamp": "2020-03-13T10:18:36Z",
      "version": "1",
      "name": "shtêpi",
      "name:en": "home",
      "name:sq": "shtëpi",
      "tourism": "apartment",
      "addr:street": "rr. mahalla e poshtme",
      "id": "node/7291417085"
    },
    "geometry": {
      "type": "Point",
      "coordinates": [
        21.673387,
        42.2301647
      ]
    }
  },
  {
    "type": "Feature",
    "id": "node/7483124253",
    "properties": {
      "timestamp": "2020-05-04T21:35:44Z",
      "version": "1",
      "name": "19-12-1942",
      "historic": "memorial",
      "material": "stone",
      "memorial": "war_memorial",
      "id": "node/7483124253"
    },
    "geometry": {
      "type": "Point",
      "coordinates": [
        21.5960119,
        41.2895356
      ]
    }
  },
  {
    "type": "Feature",
    "id": "node/7508523397",
    "properties": {
      "timestamp": "2020-05-11T19:31:04Z",
      "version": "2",
      "name": "Ерол Готак",
      "historic": "memorial",
      "memorial": "war_memorial",
      "id": "node/7508523397"
    },
    "geometry": {
      "type": "Point",
      "coordinates": [
        21.5486015,
        42.0227044
      ]
    }
  },
  {
    "type": "Feature",
    "id": "node/7556946785",
    "properties": {
      "timestamp": "2020-05-25T18:45:34Z",
      "version": "1",
      "name": "Mice kozar 37",
      "tourism": "apartment",
      "id": "node/7556946785"
    },
    "geometry": {
      "type": "Point",
      "coordinates": [
        21.3620267,
        42.0025725
      ]
    }
  },
  {
    "type": "Feature",
    "id": "node/7564125585",
    "properties": {
      "timestamp": "2020-05-30T23:11:09Z",
      "version": "3",
      "name": "Горан Миноски",
      "historic": "memorial",
      "memorial": "war_memorial",
      "id": "node/7564125585"
    },
    "geometry": {
      "type": "Point",
      "coordinates": [
        21.1745241,
        41.9781971
      ]
    }
  },
  {
    "type": "Feature",
    "id": "node/7564125589",
    "properties": {
      "timestamp": "2020-05-27T22:22:27Z",
      "version": "2",
      "name": "Дарко Велјаноски",
      "historic": "memorial",
      "memorial": "war_memorial",
      "id": "node/7564125589"
    },
    "geometry": {
      "type": "Point",
      "coordinates": [
        21.1717935,
        41.9770406
      ]
    }
  },
  {
    "type": "Feature",
    "id": "node/7626874879",
    "properties": {
      "timestamp": "2020-06-16T18:33:39Z",
      "version": "1",
      "name": "Пере Тошев",
      "tomb": "tombstone",
      "access": "yes",
      "name:en": "Pere Toshev",
      "historic": "tomb",
      "wikipedia": "mk:Пере Тошев",
      "id": "node/7626874879"
    },
    "geometry": {
      "type": "Point",
      "coordinates": [
        21.5583672,
        41.3428752
      ]
    }
  },
  {
    "type": "Feature",
    "id": "node/7796229746",
    "properties": {
      "timestamp": "2020-08-16T19:38:22Z",
      "version": "2",
      "historic": "monument",
      "name": "Христо Узунов",
      "name:en": "Hristo Uzunov",
      "id": "node/7796229746"
    },
    "geometry": {
      "type": "Point",
      "coordinates": [
        20.9222623,
        41.483575
      ]
    }
  },
  {
    "type": "Feature",
    "id": "node/7826733791",
    "properties": {
      "timestamp": "2020-08-19T17:24:16Z",
      "version": "1",
      "date": "1904-08-04",
      "historic": "battlefield",
      "name": "Битката на Ѓурѓејца",
      "name:en": "Battle of Gjurgjejca",
      "id": "node/7826733791"
    },
    "geometry": {
      "type": "Point",
      "coordinates": [
        20.9658462,
        41.4528994
      ]
    }
  },
  {
    "type": "Feature",
    "id": "node/7838023986",
    "properties": {
      "timestamp": "2020-08-23T20:09:48Z",
      "version": "1",
      "name": "Отличный вид на закате!",
      "tourism": "attraction",
      "id": "node/7838023986"
    },
    "geometry": {
      "type": "Point",
      "coordinates": [
        20.8237276,
        41.1037791
      ]
    }
  },
  {
    "type": "Feature",
    "id": "node/8004416436",
    "properties": {
      "timestamp": "2020-10-13T18:49:08Z",
      "version": "1",
      "artwork_type": "bust",
      "name": "Кире Гаврилоски-Јане",
      "name:en": "Kire Gavriloski-Jane",
      "tourism": "artwork",
      "wikidata": "Q7997885",
      "wikipedia": "mk:Кире Гаврилоски",
      "id": "node/8004416436"
    },
    "geometry": {
      "type": "Point",
      "coordinates": [
        21.5554027,
        41.3360133
      ]
    }
  },
  {
    "type": "Feature",
    "id": "node/8004416440",
    "properties": {
      "timestamp": "2020-10-13T18:49:08Z",
      "version": "1",
      "artwork_type": "bust",
      "name": "Борка Талески-Модерното",
      "name:en": "Borka Taleski-Modernoto",
      "tourism": "artwork",
      "wikidata": "Q3406966",
      "wikipedia": "mk:Борка Талески",
      "id": "node/8004416440"
    },
    "geometry": {
      "type": "Point",
      "coordinates": [
        21.55512,
        41.3358954
      ]
    }
  },
  {
    "type": "Feature",
    "id": "node/8004416444",
    "properties": {
      "timestamp": "2020-10-14T04:33:15Z",
      "version": "2",
      "artwork_type": "bust",
      "name": "Јордан Чопела-Орде",
      "name:en": "Jordan Chopela-Orde",
      "tourism": "artwork",
      "wikidata": "Q3406637",
      "wikipedia": "mk:Орде Чопела",
      "id": "node/8004416444"
    },
    "geometry": {
      "type": "Point",
      "coordinates": [
        21.5552234,
        41.3359385
      ]
    }
  },
  {
    "type": "Feature",
    "id": "node/8043782602",
    "properties": {
      "timestamp": "2020-10-28T17:28:11Z",
      "version": "3",
      "addr:city": "Прилеп",
      "addr:housenumber": "15",
      "addr:postcode": "7500",
      "addr:street": "Гоце Делчев",
      "cuisine": "macedonian",
      "internet_access": "yes",
      "internet_access:fee": "no",
      "name": "Атлас",
      "name:en": "Atlas",
      "phone": "+38948550700;+38948550702",
      "tourism": "hotel",
      "website": "http://www.atlasinvest.com.mk/",
      "id": "node/8043782602"
    },
    "geometry": {
      "type": "Point",
      "coordinates": [
        21.5543245,
        41.346345
      ]
    }
  },
  {
    "type": "Feature",
    "id": "node/8069229451",
    "properties": {
      "timestamp": "2020-12-21T11:14:59Z",
      "version": "2",
      "historic": "memorial",
      "inscription": "Манчу Матак\n1920-1944",
      "material": "bronze",
      "memorial": "bust",
      "name": "Манчу Матак",
      "name:en": "Manchu Matak",
      "name:mk": "Манчу Матак",
      "id": "node/8069229451"
    },
    "geometry": {
      "type": "Point",
      "coordinates": [
        21.249738,
        41.3677912
      ]
    }
  },
  {
    "type": "Feature",
    "id": "node/8109460807",
    "properties": {
      "timestamp": "2020-11-11T20:22:29Z",
      "version": "1",
      "name": "Хотел Бетон",
      "tourism": "hotel",
      "id": "node/8109460807"
    },
    "geometry": {
      "type": "Point",
      "coordinates": [
        20.802805,
        41.0754796
      ]
    }
  },
  {
    "type": "Feature",
    "id": "node/8109477957",
    "properties": {
      "timestamp": "2020-11-11T20:32:06Z",
      "version": "1",
      "name": "Коцарев",
      "tourism": "hotel",
      "id": "node/8109477957"
    },
    "geometry": {
      "type": "Point",
      "coordinates": [
        20.7599981,
        41.1471777
      ]
    }
  },
  {
    "type": "Feature",
    "id": "node/8279921462",
    "properties": {
      "timestamp": "2021-04-18T14:18:13Z",
      "version": "3",
      "historic": "monument",
      "name": "Кица Петрески",
      "name:en": "Kica Petreski",
      "id": "node/8279921462"
    },
    "geometry": {
      "type": "Point",
      "coordinates": [
        21.2488407,
        41.3653786
      ]
    }
  },
  {
    "type": "Feature",
    "id": "node/8402601134",
    "properties": {
      "timestamp": "2021-02-07T18:01:05Z",
      "version": "1",
      "historic": "monument",
      "name": "МАР-7712",
      "id": "node/8402601134"
    },
    "geometry": {
      "type": "Point",
      "coordinates": [
        22.6491133,
        41.4498577
      ]
    }
  },
  {
    "type": "Feature",
    "id": "node/8463466227",
    "properties": {
      "timestamp": "2021-02-27T11:47:40Z",
      "version": "1",
      "artwork_type": "bust",
      "name": "Јоска Јорданоски - Сандански",
      "name:en": "Joska Jordanoski - Sandanski",
      "name:mk": "Јоска Јорданоски – Сандански",
      "tourism": "artwork",
      "wikidata": "Q12282263",
      "wikipedia": "mk:Јоска Јорданоски",
      "id": "node/8463466227"
    },
    "geometry": {
      "type": "Point",
      "coordinates": [
        21.5594109,
        41.3476525
      ]
    }
  },
  {
    "type": "Feature",
    "id": "node/8507800396",
    "properties": {
      "timestamp": "2021-03-21T23:49:16Z",
      "version": "2",
      "artwork_type": "bust",
      "material": "metal",
      "name": "Христијан Тодоровски Карпош",
      "tourism": "artwork",
      "id": "node/8507800396"
    },
    "geometry": {
      "type": "Point",
      "coordinates": [
        21.4135021,
        42.0038675
      ]
    }
  },
  {
    "type": "Feature",
    "id": "node/8677386085",
    "properties": {
      "timestamp": "2021-04-28T18:57:14Z",
      "version": "1",
      "historic": "monument",
      "name": "Вејце",
      "id": "node/8677386085"
    },
    "geometry": {
      "type": "Point",
      "coordinates": [
        20.9185104,
        42.0673767
      ]
    }
  },
  {
    "type": "Feature",
    "id": "node/8780754325",
    "properties": {
      "timestamp": "2021-05-30T10:10:01Z",
      "version": "1",
      "artwork_type": "bust",
      "inscription": "Киро Бајрамоски",
      "material": "bronze",
      "name": "Киро Бајрамоски",
      "name:en": "Kiro Bajramoski",
      "name:mk": "Киро Бајрамоски",
      "tourism": "artwork",
      "id": "node/8780754325"
    },
    "geometry": {
      "type": "Point",
      "coordinates": [
        21.5643393,
        41.345092
      ]
    }
  },
  {
    "type": "Feature",
    "id": "node/8883349544",
    "properties": {
      "timestamp": "2021-07-01T15:51:55Z",
      "version": "1",
      "historic": "monument",
      "name": "Krste Petkov Misirkov",
      "name:mk": "Крсте Петков Мисирков",
      "id": "node/8883349544"
    },
    "geometry": {
      "type": "Point",
      "coordinates": [
        21.4412009,
        41.9960184
      ]
    }
  },
  {
    "type": "Feature",
    "id": "node/8901338319",
    "properties": {
      "timestamp": "2021-07-07T14:55:22Z",
      "version": "1",
      "historic": "memorial",
      "name": "Xhemë Hasa",
      "id": "node/8901338319"
    },
    "geometry": {
      "type": "Point",
      "coordinates": [
        20.881732,
        41.7192252
      ]
    }
  },
  {
    "type": "Feature",
    "id": "node/8944545329",
    "properties": {
      "timestamp": "2021-07-23T20:08:06Z",
      "version": "3",
      "denomination": "orthodox",
      "historic": "wayside_shrine",
      "name": "Св. Ѓорѓија",
      "name:en": "St. George",
      "name:mk": "Св. Ѓорѓија",
      "religion": "christian",
      "id": "node/8944545329"
    },
    "geometry": {
      "type": "Point",
      "coordinates": [
        21.3208996,
        41.0108476
      ]
    }
  },
  {
    "type": "Feature",
    "id": "node/9029372362",
    "properties": {
      "timestamp": "2021-08-23T17:31:18Z",
      "version": "1",
      "name": "Jokshirski most",
      "tourism": "attraction",
      "id": "node/9029372362"
    },
    "geometry": {
      "type": "Point",
      "coordinates": [
        22.1825001,
        42.0793443
      ]
    }
  },
  {
    "type": "Feature",
    "id": "node/9078062172",
    "properties": {
      "timestamp": "2021-09-24T22:52:24Z",
      "version": "4",
      "artist_name": "Томе Серафимовски",
      "artwork_type": "statue",
      "description": "Тарас Шевченко (украински Тарас Григорович Шевченко; 9 март 1814 – 10 март 1861) — познат украински писател.\nРоден е во с. Моринци, Киевска губернија, во тоа време дел од Руската Империја. Бил член на Братството на Кирил и Методиј. По обвинувањето во анти",
      "material": "copper",
      "name": "Тарас Шевченко",
      "start_date": "2008",
      "tourism": "artwork",
      "id": "node/9078062172"
    },
    "geometry": {
      "type": "Point",
      "coordinates": [
        21.433845,
        41.9940194
      ]
    }
  },
  {
    "type": "Feature",
    "id": "node/9078062191",
    "properties": {
      "timestamp": "2021-09-24T22:52:24Z",
      "version": "3",
      "artist_name": "Жарко Башески",
      "artwork_type": "statue",
      "cost": "214.921 euro",
      "description": "Историско значење: Кузман Јосифоски - Питу (Прилеп, 23 јуни 1915 - Скопје, 25 февруари 1944) — македонски правник, комунист, еден од главните организатори на антифашистичкото движење (1938-1941) и на НОБ во Македонија (1941-1944).\n\nСтанува член на КПЈ во",
      "investitors": "Општина центар",
      "learnica": "Фондериа Артистика Гуастини",
      "material": "metal",
      "name": "Kuzman Josifovski-Pitu",
      "start_date": "10.7.2012",
      "tourism": "artwork",
      "id": "node/9078062191"
    },
    "geometry": {
      "type": "Point",
      "coordinates": [
        21.4330051,
        41.9940383
      ]
    }
  },
  {
    "type": "Feature",
    "id": "node/9079063679",
    "properties": {
      "timestamp": "2021-09-26T19:12:14Z",
      "version": "4",
      "artist_name": "Боро Митричевски",
      "artwork_type": "statue",
      "description": "Жените и женската младина од Скопје и цела Македонија активно учествувале во многу акции организирани од СКОЈ и синдикатите. Во 1940 година била основана „Женска набавна задруга“ во која членувале околу 150 жени домаќинки, работнички, студентки и други мл",
      "material": "marble",
      "name": "Споменик на жената борец",
      "start_date": "8 март 1970",
      "tourism": "artwork",
      "id": "node/9079063679"
    },
    "geometry": {
      "type": "Point",
      "coordinates": [
        21.4340468,
        41.9936316
      ]
    }
  },
  {
    "type": "Feature",
    "id": "node/9086030879",
    "properties": {
      "timestamp": "2021-09-13T08:50:52Z",
      "version": "1",
      "historic": "monument",
      "monument": "war_memorial",
      "name": "Загинати Лешочани во војните 1903-2001",
      "id": "node/9086030879"
    },
    "geometry": {
      "type": "Point",
      "coordinates": [
        21.0285176,
        42.0668701
      ]
    }
  },
  {
    "type": "Feature",
    "id": "node/9200216332",
    "properties": {
      "timestamp": "2021-10-25T16:00:56Z",
      "version": "1",
      "name": "Villa bella",
      "tourism": "hostel",
      "website": "http://www.villabella.com.mk",
      "id": "node/9200216332"
    },
    "geometry": {
      "type": "Point",
      "coordinates": [
        20.7989664,
        41.1152233
      ]
    }
  },
  {
    "type": "Feature",
    "id": "node/9200216433",
    "properties": {
      "timestamp": "2021-10-25T16:01:15Z",
      "version": "1",
      "name": "Villa Nina",
      "tourism": "hotel",
      "id": "node/9200216433"
    },
    "geometry": {
      "type": "Point",
      "coordinates": [
        21.4253898,
        42.0004054
      ]
    }
  },
  {
    "type": "Feature",
    "id": "node/9200216720",
    "properties": {
      "timestamp": "2021-10-25T16:01:25Z",
      "version": "1",
      "name": "Santos",
      "tourism": "hotel",
      "id": "node/9200216720"
    },
    "geometry": {
      "type": "Point",
      "coordinates": [
        21.4380515,
        42.0021157
      ]
    }
  }
]
